Unnamed: 0,locality,type of property,subtype of property,price,sale type,number of rooms,area,kitchen equipment,furnished,open fire,terrace,terrace area,garden,garden area,surface land,surface plot land,number of facades,swimming pool,building state,build year,epc,full adress,lat,lng,url
0,Marche-en-Famenne,Maison,,320000.0,notariale,6,140.0,0,0,0,,,0,,,,,0,,,581.0," de Marenne 131, 6900 Marche-en-Famenne",50.2295,5.35419,https://www.zimmo.be/fr/marche-en-famenne-6900/a-vendre/maison/JY4QP/
1,,Projet,,333692.0,notariale,0,,0,0,0,,,0,,,,,0,,,,,50.89885,4.33895,https://www.zimmo.be/fr/arlon-6700/a-vendre/projet-immobilier/10041TI/
2,Marche-en-Famenne,Terrain,Terrain à bâtir,80000.0,notariale,0,,0,0,0,,,0,,,,4.0,0,,,," des Peupliers 1, 6900 Marche-en-Famenne",50.21252,5.35809,https://www.zimmo.be/fr/marche-en-famenne-6900/a-vendre/terrain/JY43U/
3,Marche-en-Famenne,Terrain,Terrain à bâtir,80000.0,notariale,0,,0,0,0,,,0,,,,4.0,0,,,," des Peupliers 1, 6900 Marche-en-Famenne",50.21252,5.35809,https://www.zimmo.be/fr/marche-en-famenne-6900/a-vendre/terrain/JY43V/
4,Bastogne,Appartement,App. rez-de-chaussée,169000.0,notariale,3,68.0,0,0,0,,,0,,,,2.0,0,,,144.0," du Parc 5, 6600 Bastogne",49.99982,5.71545,https://www.zimmo.be/fr/bastogne-6600/a-vendre/appartement/JY43T/
5,Rendeux,Maison,Villa-Manoir,195000.0,notariale,4,100.0,0,0,0,,,0,,,,3.0,0,,,546.0," du Petit Bois 17, 6987 Rendeux",50.23208,5.49923,https://www.zimmo.be/fr/rendeux-6987/a-vendre/maison/JY43R/
6,Rendeux,Maison,Villa-Manoir,195000.0,notariale,5,113.0,0,0,0,,,0,,,,3.0,0,,,489.0," du Petit Bois 17A, 6987 Rendeux",50.23202,5.4991,https://www.zimmo.be/fr/rendeux-6987/a-vendre/maison/JY43S/
7,La Roche-en-Ardenne,Appartement,,189000.0,notariale,7,160.0,0,0,0,,,0,,,,2.0,0,,1973.0,254.0," Chanteraine 7, 6980 La Roche-en-Ardenne",50.18131,5.57491,https://www.zimmo.be/fr/la%20roche-en-ardenne-6980/a-vendre/appartement/JY43P/
8,La Roche-en-Ardenne,Maison,Villa-Manoir,375000.0,notariale,19,423.0,0,0,0,,,0,,,,4.0,0,,,," de Villez 63, 6980 La Roche-en-Ardenne",50.18033,5.58404,https://www.zimmo.be/fr/la%20roche-en-ardenne-6980/a-vendre/maison/JY43Q/
9,Hargimont,Maison,,279000.0,notariale,4,139.0,0,0,0,,,0,,,,,0,,,361.0," du Presbytère 28, 6900 Hargimont",50.18203,5.30625,https://www.zimmo.be/fr/hargimont-6900/a-vendre/maison/JY3R2/
0,Torgny,Bien professionnel,Entrepôt avec habitation,695000.0,notariale,22,478.0,0,0,0,,,0,,,,,0,,,," Escofiette 12, 6762 Torgny",49.50725,5.47449,https://www.zimmo.be/fr/torgny-6762/a-vendre/bien-professionnel/JY21W/
1,Wéris,Maison,Maison unifamiliale,1500000.0,notariale,6,400.0,0,0,0,,,1,,,,4.0,0,,2014.0,107.0," des Dolmens 32, 6940 Wéris",50.33066,5.52602,https://www.zimmo.be/fr/weris-6940/a-vendre/maison/JY1YZ/
2,Arlon,Appartement,,189000.0,notariale,2,43.0,0,0,0,True,40.0,0,,,,2.0,0,,2016.0,153.0," Emile Tandel 2 / 005, 6700 Arlon",49.6975,5.81082,https://www.zimmo.be/fr/arlon-6700/a-vendre/appartement/JY1U7/
3,Attert,Maison,,395000.0,notariale,8,245.0,0,0,0,True,24.0,1,,,,3.0,0,,1888.0,213.0,,49.75062,5.78885,https://www.zimmo.be/fr/attert-6717/a-vendre/maison/JY1K4/
4,Virton,Maison,Maison unifamiliale,275000.0,notariale,7,250.0,0,0,0,True,10.0,1,,,,2.0,0,,1960.0,256.0,,49.56726,5.53472,https://www.zimmo.be/fr/virton-6760/a-vendre/maison/JY1K2/
5,Petit-Thier,Terrain,,125000.0,notariale,0,,0,0,0,,,0,,,,,0,,,," de Ville du Bois, 6692 Petit-Thier",50.30386,5.96075,https://www.zimmo.be/fr/petit-thier-6692/a-vendre/terrain/JY1ES/
6,Petit-Thier,Terrain,,125000.0,notariale,0,,0,0,0,,,1,,,,,0,,,," de Ville du Bois, 6692 Petit-Thier",50.30386,5.96075,https://www.zimmo.be/fr/petit-thier-6692/a-vendre/terrain/JY1ET/
7,Durbuy,Maison,,599000.0,notariale,6,261.0,0,0,0,,,1,,,,,0,,,152.0," Pièri 12, 6940 Durbuy",50.35049,5.55419,https://www.zimmo.be/fr/durbuy-6940/a-vendre/maison/JY150/
8,Erezée,Bien professionnel,,275000.0,notariale,7,,0,0,0,,,1,,,,4.0,0,,,310.0," des Combattants 6 et 8, 6997 Erezée",50.29302,5.55843,https://www.zimmo.be/fr/erezee-6997/a-vendre/bien-professionnel/JY0WV/
9,,Projet,,198000.0,notariale,0,,0,0,0,,,0,,,,,0,,,,,50.89885,4.33895,https://www.zimmo.be/fr/arlon-6700/a-vendre/projet-immobilier/10042UV/
0,Libin,Maison,,240000.0,notariale,6,147.0,0,0,0,,,1,,,,4.0,0,,1968.0,398.0," de la Colline 23, 6890 Libin",50.00333,5.20152,https://www.zimmo.be/fr/libin-6890/a-vendre/maison/JY0OV/
1,,Projet,,332240.0,notariale,0,,0,0,0,,,0,,,,,0,,2021.0,,,50.89885,4.33895,https://www.zimmo.be/fr/flamierge-6686/a-vendre/projet-immobilier/10044P4/
2,Erezée,Maison,,349000.0,notariale,4,165.0,0,0,0,,,1,,,,4.0,0,,2002.0,157.0," des Mésanges, Biron 23, 6997 Erezée",50.2968,5.45552,https://www.zimmo.be/fr/erezee-6997/a-vendre/maison/JY0A8/
3,,Projet,,411417.0,notariale,0,,0,0,0,,,0,,,,,0,,,,,50.89885,4.33895,https://www.zimmo.be/fr/arlon-6700/a-vendre/projet-immobilier/100444Z/
4,Marche-en-Famenne,Maison,,199000.0,notariale,7,219.0,0,0,0,,,1,,,,3.0,0,,,707.0," de la coopérative 4 + 4A, 6900 Marche-en-Famenne",50.2,5.31465,https://www.zimmo.be/fr/marche-en-famenne-6900/a-vendre/maison/JTIUD/
5,Cugnon,Terrain,Terrain à bâtir,249990.0,notariale,0,,0,0,0,,,0,,,,,0,,,," de la Forteresse X, 6880 Cugnon",49.80512,5.20262,https://www.zimmo.be/fr/cugnon-6880/a-vendre/terrain/JXYUE/
6,Samrée,Maison,,265000.0,notariale,6,243.0,0,1,0,,,0,,,,4.0,0,,,264.0," 53, 6982 Samrée",50.20965,5.64138,https://www.zimmo.be/fr/samree-6982/a-vendre/maison/JXYQ7/
7,Rendeux,Maison,Chalet,99900.0,notariale,3,65.0,0,0,0,,,0,,,76.0,4.0,0,old,1974.0,805.0," Sainte Bernadette 34, 6987 Rendeux",50.20071,5.54042,https://www.zimmo.be/fr/rendeux-6987/a-vendre/maison/JX5HY/
8,Paliseul,Terrain,Terrain à bâtir,30000.0,notariale,0,,0,0,0,,,0,,,,,0,,,," Coleau-Colette, 6850 Paliseul",49.90356,5.13743,https://www.zimmo.be/fr/paliseul-6850/a-vendre/terrain/JXYM1/
9,,Maison,,,notariale,2,,0,0,0,,,1,,,,,0,,,390.0," de la pyramide 12, 6940 Durbuy",50.39828,5.50992,https://www.zimmo.be/fr/durbuy-6940/a-vendre/maison/JXYF8/
0,Barvaux-sur-Ourthe,Appartement,Studio,95000.0,notariale,1,34.0,0,1,0,,,0,,,,,0,,2003.0,," 94 / 6, 6940 Barvaux-sur-Ourthe",50.37017,5.51773,https://www.zimmo.be/fr/barvaux-sur-ourthe-6940/a-vendre/appartement/JXY77/
1,Chassepierre,Maison,,495000.0,notariale,15,400.0,0,0,0,,,0,,,,4.0,0,,,261.0," le Ménil 9, 6824 Chassepierre",49.70762,5.25916,https://www.zimmo.be/fr/chassepierre-6824/a-vendre/maison/JXY55/
0,,Projet,,243960.0,notariale,0,,0,0,0,,,0,,,,,0,,,,,50.89885,4.33895,https://www.zimmo.be/fr/arlon-6700/a-vendre/projet-immobilier/10045G8/
1,Maissin,Maison,,385000.0,notariale,6,143.0,0,0,0,,,1,,,,4.0,0,,1969.0,281.0," Neuve 7, 6852 Maissin",49.96332,5.18047,https://www.zimmo.be/fr/maissin-6852/a-vendre/maison/JY3JI/
2,Arlon,Appartement,,340000.0,notariale,5,119.0,0,0,0,,,0,,,,,0,,2007.0,204.0," de la Vierge Noire 3 / 7, 6700 Arlon",49.68478,5.81477,https://www.zimmo.be/fr/arlon-6700/a-vendre/appartement/JY2WG/
3,Aye,Maison,,465000.0,notariale,7,262.0,0,0,0,,,0,,,700.0,,0,,,150.0," Tranquille 1, 6900 Aye",50.22728,5.3186,https://www.zimmo.be/fr/aye-6900/a-vendre/maison/JWRPK/
4,,Projet,,139943.0,notariale,0,,0,0,0,,,0,,,,,0,,2020.0,,,50.89885,4.33895,https://www.zimmo.be/fr/arlon-6700/a-vendre/projet-immobilier/10040YD/
5,Amonines,Maison,,529000.0,notariale,8,10.0,0,0,0,,,1,,,,4.0,0,,2012.0,156.0," de Dochamps 1A, 6997 Amonines",50.26752,5.55907,https://www.zimmo.be/fr/amonines-6997/a-vendre/maison/JY2CV/
6,Hompré,Maison,,295000.0,notariale,5,140.0,0,0,0,,,1,,,,3.0,0,,2019.0,125.0, 6640 Hompré,49.94369,5.68267,https://www.zimmo.be/fr/hompre-6640/a-vendre/maison/JY24E/
7,Arlon,Appartement,,145000.0,notariale,3,75.0,0,0,0,,,0,,,,2.0,0,,,243.0," des Faubourgs 50 / 4, 6700 Arlon",49.68477,5.8104,https://www.zimmo.be/fr/arlon-6700/a-vendre/appartement/JY21X/
8,Torgny,Maison,Usage mixte,695000.0,notariale,22,478.0,0,0,0,,,0,,,,,0,,,," Escofiette 12, 6762 Torgny",49.50725,5.47449,https://www.zimmo.be/fr/torgny-6762/a-vendre/maison/JY21Y/
9,Torgny,Maison,,695000.0,notariale,22,478.0,0,0,0,,,0,,,,,0,,,," Escofiette 12, 6762 Torgny",49.50725,5.47449,https://www.zimmo.be/fr/torgny-6762/a-vendre/maison/JY21Z/
